[
  {
    "id": 2657508,
    "name": "Alfreton",
    "country": "GB",
    "coord": {
      "lon": -1.38832,
      "lat": 53.0961
    }
  },
  {
    "id": 2656981,
    "name": "Ashbourne",
    "country": "GB",
    "coord": {
      "lon": -1.73333,
      "lat": 53.01667
    }
  },
  {
    "id": 2656617,
    "name": "Bakewell",
    "country": "GB",
    "coord": {
      "lon": -1.67481,
      "lat": 53.213379
    }
  },
  {
    "id": 2655942,
    "name": "Belper",
    "country": "GB",
    "coord": {
      "lon": -1.48119,
      "lat": 53.0233
    }
  },
  {
    "id": 2654141,
    "name": "Buxton",
    "country": "GB",
    "coord": {
      "lon": -1.90982,
      "lat": 53.257408
    }
  },
  {
    "id": 2653225,
    "name": "Chesterfield",
    "country": "GB",
    "coord": {
      "lon": -1.41667,
      "lat": 53.25
    }
  },
  {
    "id": 2652771,
    "name": "Clowne",
    "country": "GB",
    "coord": {
      "lon": -1.26406,
      "lat": 53.27449
    }
  },
  {
    "id": 2651347,
    "name": "Derby",
    "country": "GB",
    "coord": {
      "lon": -1.47663,
      "lat": 52.922771
    }
  },
  {
    "id": 2651346,
    "name": "Derbyshire",
    "country": "GB",
    "coord": {
      "lon": -1.58333,
      "lat": 53.166672
    }
  },
  {
    "id": 2648405,
    "name": "Glossop",
    "country": "GB",
    "coord": {
      "lon": -1.949,
      "lat": 53.443249
    }
  },
  {
    "id": 2639325,
    "name": "Ripley",
    "country": "GB",
    "coord": {
      "lon": -1.4,
      "lat": 53.033329
    }
  },
  {
    "id": 2636465,
    "name": "Swadlincote",
    "country": "GB",
    "coord": {
      "lon": -1.55744,
      "lat": 52.773998
    }
  }
]
